{
  "version": 1,
  "walks": [
    {
      "name": "World War One",
      "lat": 51.629619,
      "lng": -0.748514,
      "backgroundImg": "img/slideBackgrounds/testSlideBackground1.jpg",
      "pinCount": 12,
      "pins": [
        {
          "lat": 51.630751,
          "lng": -0.755227,
          "name": "Tourist Information Centre",
          "contentLink" : "pages/frogmoor.html",
          "distanceTo" : 175.2
        },
        {
          "lat": 51.630771,
          "lng": -0.752861,
          "name": "'The Frogmoor Fountain",
          "contentLink" : "pages/pin2.html",
          "distanceTo" : 35.4

        },
        {
          "lat": 51.630596,
          "lng": -0.752478,
          "name": "'Hen & Chickens' site of tailors",
          "contentLink" : "pages/pin3.html",
          "distanceTo" : 85.5
        },
        {
          "lat": 51.630120,
          "lng": -0.751291,
          "name": "War Memorial ( Youens Commemorative Stone )",
          "contentLink" : "pages/pin4.html",
          "distanceTo" : 90
        },
        {
          "lat": 51.629380,
          "lng": -0.751174,
          "name": "The Guildhall",
          "contentLink" : "pages/pin5.html",
          "distanceTo" : 5
        },
        {
          "lat": 51.629309,
          "lng": -0.751560,
          "name": "The Stained Glass Window",
          "contentLink" : "pages/pin6.html",
          "distanceTo" : 227
        },
        {
          "lat": 51.627118,
          "lng": -0.749562,
          "name": "Jack's Garden",
          "contentLink" : "pages/pin6.html",
          "distanceTo" : 308
        },
        {
          "lat": 51.626945,
          "lng": -0.748951,
          "name": "Wycombe Abbey",
          "contentLink" : "pages/pin6.html",
          "distanceTo" : 212
        },
        {
          "lat": 51.625364,
          "lng": -0.746668,
          "name": "The Rye",
          "contentLink" : "pages/pin6.html",
          "distanceTo" : 251
        },
        {
          "lat": 51.626918,
          "lng": -0.743769,
          "name": "The Factories By The Mill",
          "contentLink" : "pages/pin6.html",
          "distanceTo" : 638
        },
        {
          "lat": 51.627565,
          "lng": -0.744383,
          "name": "The Old Grammar School",
          "contentLink" : "pages/pin6.html",
          "distanceTo" : 638
        },
        {
          "lat": 51.629755,
          "lng": -0.746290,
          "name": "High Wycombe Station",
          "contentLink" : "pages/pin6.html",
          "distanceTo" : 213
        },
        {
          "lat": 51.630717,
          "lng": -0.748017,
          "name": "The Museum",
          "contentLink" : "pages/pin6.html",
          "distanceTo" : 0
        }
      ]
    }
  ]
}