{
  "version": 1,
  "walks": [
    {
      "name": "World War One",
      "lat": 51.629619,
      "lng": -0.748514,
      "backgroundImg": "img/slideBackgrounds/testSlideBackground1.jpg",
      "pinCount": 3,
      "pins": [
        {
          "lat": 51.630692,
          "lng": -0.754866,
          "name": "Tourist Information Centre",
          "contentLink" : "pages/pin1.html"
        },
        {
          "lat": 51.630716,
          "lng": -0.752818,
          "name": "'Hen & Chickens' site of tailors",
          "contentLink" : "pages/pin2.html"
        },
        {
          "lat": 51.630237,
          "lng": -0.751395,
          "name": "War Memorial and Youens Commemorative Stone",
          "contentLink" : "pages/pin3.html"
        }
      ]
    },
    {
      "name": "World War Two",
      "lat": 51.629619,
      "lng": -0.748514,
      "backgroundImg": "img/slideBackgrounds/testSlideBackground2.jpg",
      "pinCount": 3,
      "pins": [
        {
          "lat": 51.629330,
          "lng": -0.751587,
          "name": "Guildhall stained glass window",
          "contentLink" : "pages/pin4.html"
        },
        {
          "lat": 51.627156,
          "lng": -0.752722,
          "name": "Hospital and Tom Burts Hill",
          "contentLink" : "pages/pin5.html"
        },
        {
          "lat": 51.626712,
          "lng": -0.751070,
          "name": "Wycombe Abbey",
          "contentLink" : "pages/pin6.html"
        }
      ]
    }
  ]
}