{
  "version": 1,
  "walks": [
    {
      "name": "World War One",
      "lat": 51.629619,
      "lng": -0.748514,
      "backgroundImg": "img/slideBackgrounds/testSlideBackground1.jpg",
      "pinCount": 12,
      "pins": [
        {
          "lat": 51.630751,
          "lng": -0.755227,
          "name": "Tourist Information Centre",
          "contentLink" : "pages/tourist-office.html",
          "distanceTo" : 198
        },
        {
          "lat": 51.630771,
          "lng": -0.752861,
          "name": "'The Frogmoor Fountain",
          "contentLink" : "pages/frogmoor.html",
          "distanceTo" : 35

        },
        {
          "lat": 51.630596,
          "lng": -0.752478,
          "name": "'Hen & Chickens' site of tailors",
          "contentLink" : "pages/hen-chicken.html",
          "distanceTo" : 93
        },
        {
          "lat": 51.630120,
          "lng": -0.751291,
          "name": "War Memorial ( Youens Commemorative Stone )",
          "contentLink" : "pages/war-memorial.html",
          "distanceTo" : 90
        },
        {
          "lat": 51.629380,
          "lng": -0.751174,
          "name": "The Guildhall",
          "contentLink" : "pages/guildhall.html",
          "distanceTo" : 20
        },
        {
          "lat": 51.629309,
          "lng": -0.751560,
          "name": "The Stained Glass Window",
          "contentLink" : "pages/glass-window.html",
          "distanceTo" : 327
        },
        {
          "lat": 51.627118,
          "lng": -0.749562,
          "name": "Jack's Garden",
          "contentLink" : "pages/queen-victoria-road.html",
          "distanceTo" : 41
        },
        /*{
          "lat": 51.626945,
          "lng": -0.748951,
          "name": "Wycombe Abbey",
          "contentLink" : "pages/Pin9.html",
          "distanceTo" : 445
        },*/
        {
          "lat": 51.625364,
          "lng": -0.746668,
          "name": "The Rye",
          "contentLink" : "pages/war-office-railings.html",
          "distanceTo" : 394
        },
        {
          "lat": 51.626918,
          "lng": -0.743769,
          "name": "The Factories By The Mill",
          "contentLink" : "pages/mill.html",
          "distanceTo" : 120
        },
        {
          "lat": 51.627565,
          "lng": -0.744383,
          "name": "The Old Grammar School",
          "contentLink" : "pages/school.html",
          "distanceTo" : 527
        },
        {
          "lat": 51.629755,
          "lng": -0.746290,
          "name": "High Wycombe Station",
          "contentLink" : "pages/station.html",
          "distanceTo" : 214
        },
        {
          "lat": 51.630717,
          "lng": -0.748017,
          "name": "The Museum",
          "contentLink" : "pages/museum.html",
          "distanceTo" : 0
        }
      ]
    }
  ]
}
